{
  "blocks": [
    {
      "name": "Omni Frisco Hotel at The Star",
      "coordinates": {
        "lat": 33.1126,
        "lng": -96.8193
      },
      "placeId": null,
      "estimated_distance_miles": 5.58,
      "driveTimeMinutes": 11,
      "value_per_min": 0.58,
      "value_grade": "C",
      "not_worth": false,
      "proTips": null,
      "closed_venue_reasoning": null,
      "stagingArea": null,
      "businessHours": null
    },
    {
      "name": "Embassy Suites by Hilton Dallas Frisco Hotel & Convention Center",
      "coordinates": {
        "lat": 33.1004,
        "lng": -96.8226
      },
      "placeId": null,
      "estimated_distance_miles": 6.65,
      "driveTimeMinutes": 11,
      "value_per_min": 0.58,
      "value_grade": "C",
      "not_worth": false,
      "proTips": null,
      "closed_venue_reasoning": null,
      "stagingArea": null,
      "businessHours": null
    },
    {
      "name": "Stonebriar Centre (Food Court Entrance)",
      "coordinates": {
        "lat": 33.0996,
        "lng": -96.8187
      },
      "placeId": null,
      "estimated_distance_miles": 5.37,
      "driveTimeMinutes": 12,
      "value_per_min": 0.56,
      "value_grade": "C",
      "not_worth": false,
      "proTips": null,
      "closed_venue_reasoning": null,
      "stagingArea": null,
      "businessHours": null
    },
    {
      "name": "Riders Field (Frisco RoughRiders) - Home Plate Gate",
      "coordinates": {
        "lat": 33.1031,
        "lng": -96.8188
      },
      "placeId": null,
      "estimated_distance_miles": 5.42,
      "driveTimeMinutes": 12,
      "value_per_min": 0.56,
      "value_grade": "C",
      "not_worth": false,
      "proTips": null,
      "closed_venue_reasoning": null,
      "stagingArea": null,
      "businessHours": null
    },
    {
      "name": "Comerica Center (Arena) - Main Entrance",
      "coordinates": {
        "lat": 33.1036,
        "lng": -96.8207
      },
      "placeId": null,
      "estimated_distance_miles": 5.27,
      "driveTimeMinutes": 12,
      "value_per_min": 0.56,
      "value_grade": "C",
      "not_worth": false,
      "proTips": null,
      "closed_venue_reasoning": null,
      "stagingArea": null,
      "businessHours": null
    }
  ],
  "ranking_id": "33463bd2-ee0f-48f1-bff8-85e13bef6a1d"
}